[{"name":"–","Geburtsort":"–","lat":null,"long":null},{"name":"Strupkow","Geburtsort":"Strupkiw ","lat":24.823,"long":48.708},{"name":"Suchdol nad Lužnicí","Geburtsort":"Suchenthal","lat":14.374,"long":50.14},{"name":"Innsbruck","Geburtsort":"Innsbruck","lat":11.393,"long":47.268},{"name":"Lebbeke","Geburtsort":"Lebbeke","lat":4.18,"long":50.929},{"name":"Lubartów","Geburtsort":"Lubartów","lat":22.6,"long":51.467},{"name":"Kraków","Geburtsort":"Krakau","lat":19.937,"long":50.061},{"name":"St. Margarethen","Geburtsort":"St. Margarethen","lat":16.606,"long":47.803},{"name":"Przemyśl","Geburtsort":"Przemyśl","lat":22.767,"long":49.783},{"name":"St. Gertruden","Geburtsort":"St. Gertruden","lat":14.507,"long":46.885},{"name":"Jemnice","Geburtsort":"Jamnitz","lat":null,"long":null},{"name":"Kranj","Geburtsort":"Krainburg","lat":14.367,"long":46.233},{"name":"Floreffe","Geburtsort":"Floreffe","lat":4.75,"long":50.435},{"name":"Firenze","Geburtsort":"Florenz","lat":11.254,"long":43.771},{"name":"Nová Bystřice","Geburtsort":"Neubistritz","lat":15.103056,"long":49.01916},{"name":"New York","Geburtsort":"New York","lat":-74.006,"long":40.713},{"name":"Grabina","Geburtsort":"Grabina","lat":19.66,"long":52.48},{"name":"Большак","Geburtsort":"Bol'shak","lat":39.544,"long":53.757},{"name":"Castelforte","Geburtsort":"Castelforte","lat":13.833,"long":41.3},{"name":"Волгоград","Geburtsort":"Volgograd","lat":44.517,"long":48.7},{"name":"Rovereto","Geburtsort":"Rovereto","lat":11.05,"long":45.883},{"name":"Pecciali","Geburtsort":"Pecciali","lat":10.717,"long":43.55},{"name":"Roma","Geburtsort":"Rom","lat":12.483,"long":41.893},{"name":"Turino","Geburtsort":"Turin","lat":7.676,"long":45.079},{"name":"طرابلس","Geburtsort":"Tripolis","lat":13.191389,"long":32.883333},{"name":"Kolenica","Geburtsort":"Kolenica","lat":16.356,"long":45.943},{"name":"Sankt Michael","Geburtsort":"Sankt Michael","lat":15.018333,"long":47.338611},{"name":"Carrara","Geburtsort":"Carrara","lat":10.1,"long":44.079},{"name":"Castelnuovo","Geburtsort":"Castelnuovo","lat":11.504,"long":43.347},{"name":"Angera","Geburtsort":"Angera","lat":8.583,"long":45.767},{"name":"Chiusaforte","Geburtsort":"Chiusaforte","lat":13.317,"long":46.4},{"name":"Kobarid","Geburtsort":"Kobarid","lat":13.578006,"long":46.246436},{"name":"Siemianówka","Geburtsort":"Siemianówka","lat":23.839,"long":52.899},{"name":"Κομοτηνή","Geburtsort":"Komotini","lat":25.404,"long":41.121},{"name":"Vicenza","Geburtsort":"Vicenza","lat":11.55,"long":45.55},{"name":"Busto Arsizio","Geburtsort":"Busto Arsizio","lat":8.8518,"long":45.611958},{"name":"Смоленск","Geburtsort":"Smolensk","lat":32.04,"long":54.782},{"name":"St. Peter","Geburtsort":"St. Peter","lat":14.41,"long":46.772},{"name":"Velké Meziříčí","Geburtsort":"Groß-Meseritsch","lat":16.013,"long":49.354},{"name":"Napoli","Geburtsort":"Neapel","lat":14.25,"long":40.833},{"name":"Тернопіль","Geburtsort":"Ternopil","lat":25.58,"long":49.55},{"name":"Treviso","Geburtsort":"Treviso","lat":12.25,"long":45.667},{"name":"Bolzano","Geburtsort":"Bozen","lat":11.35,"long":46.5},{"name":"Castel Delfino","Geburtsort":"Castel Delfino","lat":7.067,"long":44.583},{"name":"Budapest","Geburtsort":"Budapest","lat":19.333,"long":47.417},{"name":"Ferrara","Geburtsort":"Ferrara","lat":11.617,"long":44.833},{"name":"Bengasi","Geburtsort":"Bengasi","lat":20.067,"long":32.117},{"name":"Копичинці","Geburtsort":"Kopytschynzi","lat":25.913,"long":49.108},{"name":"Hłudno","Geburtsort":"Hłudno","lat":22.15,"long":49.783333},{"name":"Štefanja Gora","Geburtsort":"Stefansberg","lat":14.484,"long":46.286669},{"name":"Šmartno","Geburtsort":"Šmartno","lat":13.556,"long":46.006},{"name":"Łódź","Geburtsort":"Lodsch","lat":19.455,"long":51.777},{"name":"Piotrków","Geburtsort":"Petrikau","lat":19.683,"long":51.4},{"name":"山东","Geburtsort":"Shandong","lat":118.4,"long":36.4},{"name":"Cadine","Geburtsort":"Cadine","lat":11.066,"long":46.089},{"name":"Nowy Targ","Geburtsort":"Neumarkt","lat":20.017,"long":49.467},{"name":"Krzątka","Geburtsort":"Krzątka","lat":21.85,"long":50.4},{"name":"Komarica","Geburtsort":"Komarica","lat":22.153,"long":43.065},{"name":"Piove di Saco","Geburtsort":"Piove di Saco","lat":12.033,"long":45.3},{"name":"Dol pri Ljubljani","Geburtsort":"Lusttal","lat":14.642,"long":46.088},{"name":"Žerjav","Geburtsort":"Scheriau","lat":14.869,"long":46.484},{"name":"Gołębiewo","Geburtsort":"Taubendorf","lat":18.983,"long":53.383},{"name":"Amsterdam","Geburtsort":"Amsterdam","lat":4.894,"long":52.373},{"name":"Sarreinsming","Geburtsort":"Sarreinsming","lat":7.109,"long":49.09},{"name":"Parma","Geburtsort":"Parma","lat":10.328,"long":44.801},{"name":"Kappl a. d. Drau","Geburtsort":"Kappl a. d. Drau","lat":14.244,"long":46.536},{"name":"Bruck a. d. Mur","Geburtsort":"Bruck a. d. Mur","lat":15.267,"long":47.417},{"name":"Telfs","Geburtsort":"Telfs","lat":11.067,"long":47.283},{"name":"Cybinka","Geburtsort":"Ziebingen","lat":14.8,"long":52.2},{"name":"Como","Geburtsort":"Como","lat":9.083,"long":45.817},{"name":"Boranto","Geburtsort":"Boranto","lat":10.04,"long":45.542},{"name":"Vnorovy","Geburtsort":"Vnorovy","lat":17.35,"long":48.931},{"name":"Courbevoie","Geburtsort":"Courbevoie","lat":2.253,"long":48.898},{"name":"Muggia","Geburtsort":"Muggia","lat":13.767,"long":45.6},{"name":"Zegartowice","Geburtsort":"Zegartowice","lat":20.190556,"long":49.826944},{"name":"Mezzolombardo","Geburtsort":"Mezzolombardo","lat":11.1,"long":46.217},{"name":"Київ","Geburtsort":"Kiew","lat":30.523,"long":50.45},{"name":"Полтава","Geburtsort":"Poltawa","lat":34.551,"long":49.589},{"name":"Луганськ","Geburtsort":"Luhansk","lat":39.303,"long":48.568}]